{"type":"FeatureCollection","crs":{"type":"name","properties":{"name":"EPSG:4326"}},"features":[{"type":"Feature","id":1,"geometry":{"type":"Point","coordinates":[-87.71144,41.89551]},"properties":{"Date":"Sat, 28 May 2022 00:00:00 GMT","Time":"Sun, 31 Dec 1899 12:53:00 GMT","Spot_Number":1,"Spot_Location":"800 N. Homan ave. Chicago IL","Latitude":41.89551,"Longitude":-87.71144,"Spot_Name_":"Chicago & Homan","Gang":"TVLs ","Faction":"Chicago ave.","Prominent_Corner_Spot":1,"Major_Street_Spot_in_front_of_d":0,"Residential_Block_Spot":0,"FID":1}},{"type":"Feature","id":2,"geometry":{"type":"Point","coordinates":[-87.71507,41.89554]},"properties":{"Date":"Sat, 28 May 2022 00:00:00 GMT","Time":"Sun, 31 Dec 1899 12:55:00 GMT","Spot_Number":2,"Spot_Location":"800 N. Drake ave. Chicago IL","Latitude":41.89554,"Longitude":-87.71507,"Spot_Name_":"Chicago & Drake","Gang":"TVLs ","Faction":"Chicago ave.","Prominent_Corner_Spot":1,"Major_Street_Spot_in_front_of_d":0,"Residential_Block_Spot":0,"FID":2}},{"type":"Feature","id":3,"geometry":{"type":"Point","coordinates":[-87.71614,41.89604]},"properties":{"Date":"Sat, 28 May 2022 00:00:00 GMT","Time":"Sun, 31 Dec 1899 12:56:00 GMT","Spot_Number":3,"Spot_Location":"815 N. Central Park ave. Chicago IL","Latitude":41.89604,"Longitude":-87.71614,"Spot_Name_":"Chicago & Central Park ","Gang":"TVLs ","Faction":"Chicago ave.","Prominent_Corner_Spot":1,"Major_Street_Spot_in_front_of_d":0,"Residential_Block_Spot":0,"FID":3}},{"type":"Feature","id":4,"geometry":{"type":"Point","coordinates":[-87.71263,41.89548]},"properties":{"Date":"Sat, 28 May 2022 00:00:00 GMT","Time":"Sun, 31 Dec 1899 13:00:00 GMT","Spot_Number":4,"Spot_Location":"800 N. Trumbull ave. Chicago IL ","Latitude":41.89548,"Longitude":-87.71263,"Spot_Name_":"Chicago & Trumbull","Gang":"TVLs ","Faction":"Chicago ave.","Prominent_Corner_Spot":1,"Major_Street_Spot_in_front_of_d":0,"Residential_Block_Spot":0,"FID":4}},{"type":"Feature","id":5,"geometry":{"type":"Point","coordinates":[-87.71374,41.89553]},"properties":{"Date":"Sat, 28 May 2022 00:00:00 GMT","Time":"Sun, 31 Dec 1899 13:12:00 GMT","Spot_Number":5,"Spot_Location":"3452 W. Chicago ave. Chicago IL","Latitude":41.89553,"Longitude":-87.71374,"Spot_Name_":"Chicago & Springfield ","Gang":"TVLs ","Faction":"Chicago ave.","Prominent_Corner_Spot":1,"Major_Street_Spot_in_front_of_d":0,"Residential_Block_Spot":0,"FID":5}},{"type":"Feature","id":6,"geometry":{"type":"Point","coordinates":[-87.71009,41.89207]},"properties":{"Date":"Sat, 28 May 2022 00:00:00 GMT","Time":"Sun, 31 Dec 1899 13:32:00 GMT","Spot_Number":6,"Spot_Location":"3330 W. Ohio st. Chicago IL ","Latitude":41.89207,"Longitude":-87.71009,"Spot_Name_":"Ohio & Christiana ","Gang":"TVLs ","Faction":"Chicago ave.","Prominent_Corner_Spot":0,"Major_Street_Spot_in_front_of_d":0,"Residential_Block_Spot":1,"FID":6}},{"type":"Feature","id":7,"geometry":{"type":"Point","coordinates":[-87.7065,41.89196]},"properties":{"Date":"Sat, 28 May 2022 00:00:00 GMT","Time":"Sun, 31 Dec 1899 13:43:00 GMT","Spot_Number":7,"Spot_Location":"600 N. Kedzie ave. Chicago IL ","Latitude":41.89196,"Longitude":-87.7065,"Spot_Name_":"Kedzie & Ohio","Gang":"TVLs","Faction":"Kedzie & Ohio ","Prominent_Corner_Spot":1,"Major_Street_Spot_in_front_of_d":0,"Residential_Block_Spot":0,"FID":7}},{"type":"Feature","id":8,"geometry":{"type":"Point","coordinates":[-87.71981,41.88991]},"properties":{"Date":"Sat, 28 May 2022 00:00:00 GMT","Time":"Sun, 31 Dec 1899 14:04:00 GMT","Spot_Number":8,"Spot_Location":"501 North Ridgeway Ave. Chicago IL","Latitude":41.88991,"Longitude":-87.71981,"Spot_Name_":"Ferdinand & Ridgeway","Gang":"CVLs","Faction":"CCG","Prominent_Corner_Spot":1,"Major_Street_Spot_in_front_of_d":0,"Residential_Block_Spot":0,"FID":8}},{"type":"Feature","id":9,"geometry":{"type":"Point","coordinates":[-87.72241,41.88972]},"properties":{"Date":"Sat, 28 May 2022 00:00:00 GMT","Time":"Sun, 31 Dec 1899 14:10:00 GMT","Spot_Number":9,"Spot_Location":"3835 West Ferdinand st. Chicago IL","Latitude":41.88972,"Longitude":-87.72241,"Spot_Name_":"Ferdinand & Avers","Gang":"CVLs","Faction":"TNG","Prominent_Corner_Spot":1,"Major_Street_Spot_in_front_of_d":0,"Residential_Block_Spot":0,"FID":9}},{"type":"Feature","id":10,"geometry":{"type":"Point","coordinates":[-87.72504,41.90086]},"properties":{"Date":"Sat, 28 May 2022 00:00:00 GMT","Time":"Sun, 31 Dec 1899 14:57:00 GMT","Spot_Number":10,"Spot_Location":"1101 N Harding ave. Chicago IL","Latitude":41.90086,"Longitude":-87.72504,"Spot_Name_":"Thomas & Harding ","Gang":"TVLs","Faction":"SUWU","Prominent_Corner_Spot":0,"Major_Street_Spot_in_front_of_d":0,"Residential_Block_Spot":1,"FID":10}},{"type":"Feature","id":11,"geometry":{"type":"Point","coordinates":[-87.71966,41.90277]},"properties":{"Date":"Sat, 28 May 2022 00:00:00 GMT","Time":"Sun, 31 Dec 1899 15:03:00 GMT","Spot_Number":11,"Spot_Location":"3700 W. Division st. Chicago IL","Latitude":41.90277,"Longitude":-87.71966,"Spot_Name_":"Lawndale & Division","Gang":"GDs","Faction":"Ridgeway & Thomas","Prominent_Corner_Spot":1,"Major_Street_Spot_in_front_of_d":0,"Residential_Block_Spot":0,"FID":11}},{"type":"Feature","id":12,"geometry":{"type":"Point","coordinates":[-87.73358,41.87971]},"properties":{"Date":"Wed, 22 Jun 2022 00:00:00 GMT","Time":"Sun, 31 Dec 1899 15:15:00 GMT","Spot_Number":12,"Spot_Location":"4310 W. Monroe st. Chicago IL","Latitude":41.87971,"Longitude":-87.73358,"Spot_Name_":"Monroe & Kildare","Gang":"GDs","Faction":"Monroe Millionaires","Prominent_Corner_Spot":0,"Major_Street_Spot_in_front_of_d":0,"Residential_Block_Spot":1,"FID":12}},{"type":"Feature","id":13,"geometry":{"type":"Point","coordinates":[-87.72712,41.88066]},"properties":{"Date":"Sat, 28 May 2022 00:00:00 GMT","Time":"Sun, 31 Dec 1899 15:20:00 GMT","Spot_Number":13,"Spot_Location":"4037 W. Madison st. Chicago IL","Latitude":41.88066,"Longitude":-87.72712,"Spot_Name_":"Pulaski & Madison A","Gang":"4CH","Faction":"Brickyard ","Prominent_Corner_Spot":0,"Major_Street_Spot_in_front_of_d":1,"Residential_Block_Spot":0,"FID":13}},{"type":"Feature","id":14,"geometry":{"type":"Point","coordinates":[-87.72616,41.88068]},"properties":{"Date":"Sat, 28 May 2022 00:00:00 GMT","Time":"Sun, 31 Dec 1899 15:20:00 GMT","Spot_Number":14,"Spot_Location":"4010 W. Madison st. Chicago IL","Latitude":41.88068,"Longitude":-87.72616,"Spot_Name_":"Pulaski & Madison B","Gang":"4CH","Faction":"Brickyard ","Prominent_Corner_Spot":0,"Major_Street_Spot_in_front_of_d":1,"Residential_Block_Spot":0,"FID":14}},{"type":"Feature","id":15,"geometry":{"type":"Point","coordinates":[-87.72557,41.88069]},"properties":{"Date":"Sat, 28 May 2022 00:00:00 GMT","Time":"Sun, 31 Dec 1899 15:20:00 GMT","Spot_Number":15,"Spot_Location":"3981 W. Madison St. Chicago","Latitude":41.88069,"Longitude":-87.72557,"Spot_Name_":"Pulaski & Madison C","Gang":"4CH","Faction":"Brickyard ","Prominent_Corner_Spot":1,"Major_Street_Spot_in_front_of_d":0,"Residential_Block_Spot":0,"FID":15}},{"type":"Feature","id":16,"geometry":{"type":"Point","coordinates":[-87.72396,41.8807]},"properties":{"Date":"Sat, 28 May 2022 00:00:00 GMT","Time":"Sun, 31 Dec 1899 15:20:00 GMT","Spot_Number":16,"Spot_Location":"3911 W. Madison St. Chicago IL","Latitude":41.8807,"Longitude":-87.72396,"Spot_Name_":"Springfield & Madison","Gang":"4CH","Faction":"Brickyard ","Prominent_Corner_Spot":0,"Major_Street_Spot_in_front_of_d":1,"Residential_Block_Spot":0,"FID":16}},{"type":"Feature","id":17,"geometry":{"type":"Point","coordinates":[-87.72713,41.87891]},"properties":{"Date":"Sat, 28 May 2022 00:00:00 GMT","Time":"Sun, 31 Dec 1899 15:30:00 GMT","Spot_Number":17,"Spot_Location":"4038 W. Wilcox St. Chicago IL","Latitude":41.87891,"Longitude":-87.72713,"Spot_Name_":"Pulaski & Wilcox","Gang":"4CH","Faction":"Brickyard ","Prominent_Corner_Spot":0,"Major_Street_Spot_in_front_of_d":0,"Residential_Block_Spot":1,"FID":17}},{"type":"Feature","id":18,"geometry":{"type":"Point","coordinates":[-87.72392,41.87707]},"properties":{"Date":"Sat, 28 May 2022 00:00:00 GMT","Time":"Sun, 31 Dec 1899 15:35:00 GMT","Spot_Number":18,"Spot_Location":"3919 W. Jackson St. Chicago IL","Latitude":41.87707,"Longitude":-87.72392,"Spot_Name_":"Pulaski & Jackson","Gang":"4CH","Faction":"Fat Shorty Gang (FSG)","Prominent_Corner_Spot":0,"Major_Street_Spot_in_front_of_d":1,"Residential_Block_Spot":0,"FID":18}},{"type":"Feature","id":19,"geometry":{"type":"Point","coordinates":[-87.72423,41.87622]},"properties":{"Date":"Wed, 15 Jun 2022 00:00:00 GMT","Time":"Sun, 31 Dec 1899 15:00:00 GMT","Spot_Number":18,"Spot_Location":"3929 W. Gladys St. Chicago IL","Latitude":41.87622,"Longitude":-87.72423,"Spot_Name_":"Pulaski & Jackson","Gang":"4CH","Faction":"Fat Shorty Gang (FSG)","Prominent_Corner_Spot":0,"Major_Street_Spot_in_front_of_d":0,"Residential_Block_Spot":1,"FID":19}},{"type":"Feature","id":20,"geometry":{"type":"Point","coordinates":[-87.72568,41.87443]},"properties":{"Date":"Sat, 28 May 2022 00:00:00 GMT","Time":"Sun, 31 Dec 1899 15:38:00 GMT","Spot_Number":19,"Spot_Location":"4000 W. Congress Pkwy. Chicago IL","Latitude":41.87443,"Longitude":-87.72568,"Spot_Name_":"Pulaski & Congress","Gang":"4CH","Faction":"Fat Shorty Gang (FSG)","Prominent_Corner_Spot":1,"Major_Street_Spot_in_front_of_d":0,"Residential_Block_Spot":0,"FID":20}},{"type":"Feature","id":21,"geometry":{"type":"Point","coordinates":[-87.72225,41.87894]},"properties":{"Date":"Sat, 11 Jun 2022 00:00:00 GMT","Time":"Sun, 31 Dec 1899 14:20:00 GMT","Spot_Number":20,"Spot_Location":"3818 W. Wilcox st. Chicago IL","Latitude":41.87894,"Longitude":-87.72225,"Spot_Name_":"Springfield & Wilcox","Gang":"4CH","Faction":"Fat Shorty Gang (FSG)","Prominent_Corner_Spot":0,"Major_Street_Spot_in_front_of_d":0,"Residential_Block_Spot":1,"FID":21}},{"type":"Feature","id":22,"geometry":{"type":"Point","coordinates":[-87.72237,41.87805]},"properties":{"Date":"Sat, 11 Jun 2022 00:00:00 GMT","Time":"Sun, 31 Dec 1899 14:30:00 GMT","Spot_Number":21,"Spot_Location":"3947 W. Wilcox st. Chicago IL","Latitude":41.87805,"Longitude":-87.72237,"Spot_Name_":"Springfield & Adams","Gang":"4CH","Faction":"Fat Shorty Gang (FSG)","Prominent_Corner_Spot":0,"Major_Street_Spot_in_front_of_d":0,"Residential_Block_Spot":1,"FID":22}},{"type":"Feature","id":23,"geometry":{"type":"Point","coordinates":[-87.71078,41.87558]},"properties":{"Date":"Sat, 11 Jun 2022 00:00:00 GMT","Time":"Sun, 31 Dec 1899 14:53:00 GMT","Spot_Number":22,"Spot_Location":"357 S. Homan ave Chicago IL","Latitude":41.87558,"Longitude":-87.71078,"Spot_Name_":"Homan & Van Buren","Gang":"UVLs","Faction":"5th City","Prominent_Corner_Spot":1,"Major_Street_Spot_in_front_of_d":0,"Residential_Block_Spot":0,"FID":23}},{"type":"Feature","id":24,"geometry":{"type":"Point","coordinates":[-87.72369,41.89719]},"properties":{"Date":"Sat, 11 Jun 2022 00:00:00 GMT","Time":"Sun, 31 Dec 1899 16:05:00 GMT","Spot_Number":23,"Spot_Location":"898 N. Springfield ave. Chicago IL","Latitude":41.89719,"Longitude":-87.72369,"Spot_Name_":"Springfield & Iowa","Gang":"TVLs ","Faction":"Chicago ave.","Prominent_Corner_Spot":1,"Major_Street_Spot_in_front_of_d":0,"Residential_Block_Spot":0,"FID":24}},{"type":"Feature","id":25,"geometry":{"type":"Point","coordinates":[-87.71519,41.89916]},"properties":{"Date":"Sat, 11 Jun 2022 00:00:00 GMT","Time":"Sun, 31 Dec 1899 16:40:00 GMT","Spot_Number":25,"Spot_Location":"3532 W. Augusta st. Chicago IL","Latitude":41.89916,"Longitude":-87.71519,"Spot_Name_":"Augusta & Drake","Gang":"TVLs","Faction":"Chicago ave.","Prominent_Corner_Spot":1,"Major_Street_Spot_in_front_of_d":0,"Residential_Block_Spot":0,"FID":25}},{"type":"Feature","id":26,"geometry":{"type":"Point","coordinates":[-87.73547,41.87424]},"properties":{"Date":"Wed, 22 Jun 2022 00:00:00 GMT","Time":"Sun, 31 Dec 1899 14:44:00 GMT","Spot_Number":26,"Spot_Location":"4410 W. Congress Pkwy. Chicago IL","Latitude":41.87424,"Longitude":-87.73547,"Spot_Name_":"Kostner & Harrison ","Gang":"GDs","Faction":"Jackson & Kilbourn","Prominent_Corner_Spot":1,"Major_Street_Spot_in_front_of_d":0,"Residential_Block_Spot":0,"FID":26}},{"type":"Feature","id":27,"geometry":{"type":"Point","coordinates":[-87.73163,41.87523]},"properties":{"Date":"Wed, 22 Jun 2022 00:00:00 GMT","Time":"Sun, 31 Dec 1899 14:46:00 GMT","Spot_Number":27,"Spot_Location":"4230 W. Van Buren St. Chicago IL","Latitude":41.87523,"Longitude":-87.73163,"Spot_Name_":"Kildare & Van Buren","Gang":"Black Souls","Faction":"New Life","Prominent_Corner_Spot":0,"Major_Street_Spot_in_front_of_d":0,"Residential_Block_Spot":1,"FID":27}},{"type":"Feature","id":28,"geometry":{"type":"Point","coordinates":[-87.73291,41.87611]},"properties":{"Date":"Wed, 22 Jun 2022 00:00:00 GMT","Time":"Sun, 31 Dec 1899 14:50:00 GMT","Spot_Number":28,"Spot_Location":"4300 W. Gladys ave. Chicago IL","Latitude":41.87611,"Longitude":-87.73291,"Spot_Name_":"Kildare & Gladys","Gang":"4CH","Faction":"Brickyard ","Prominent_Corner_Spot":1,"Major_Street_Spot_in_front_of_d":0,"Residential_Block_Spot":0,"FID":28}},{"type":"Feature","id":29,"geometry":{"type":"Point","coordinates":[-87.72924,41.87795]},"properties":{"Date":"Wed, 22 Jun 2022 00:00:00 GMT","Time":"Sun, 31 Dec 1899 14:58:00 GMT","Spot_Number":29,"Spot_Location":"4130 W. Adams st. Chicago IL","Latitude":41.87795,"Longitude":-87.72924,"Spot_Name_":"Adams & Keeler","Gang":"4CH","Faction":"Brickyard ","Prominent_Corner_Spot":0,"Major_Street_Spot_in_front_of_d":0,"Residential_Block_Spot":1,"FID":29}},{"type":"Feature","id":30,"geometry":{"type":"Point","coordinates":[-87.72481,41.87532]},"properties":{"Date":"Wed, 22 Jun 2022 00:00:00 GMT","Time":"Sun, 31 Dec 1899 14:09:00 GMT","Spot_Number":30,"Spot_Location":"3944 W. Van Buren st. Chicago IL","Latitude":41.87532,"Longitude":-87.72481,"Spot_Name_":"Pulaski & Van Buren","Gang":"4CH","Faction":"Fat Shorty Gang (FSG)","Prominent_Corner_Spot":0,"Major_Street_Spot_in_front_of_d":1,"Residential_Block_Spot":0,"FID":30}},{"type":"Feature","id":31,"geometry":{"type":"Point","coordinates":[-87.73515,41.88461]},"properties":{"Date":"Wed, 22 Jun 2022 00:00:00 GMT","Time":"Sun, 31 Dec 1899 14:20:00 GMT","Spot_Number":31,"Spot_Location":"4350 W. Maypole ave. Chicago IL","Latitude":41.88461,"Longitude":-87.73515,"Spot_Name_":"Kostner & Maypole","Gang":"UVLs","Faction":"Washington & Kilbourn","Prominent_Corner_Spot":0,"Major_Street_Spot_in_front_of_d":0,"Residential_Block_Spot":1,"FID":31}},{"type":"Feature","id":32,"geometry":{"type":"Point","coordinates":[-87.7397,41.88455]},"properties":{"Date":"Wed, 22 Jun 2022 00:00:00 GMT","Time":"Sun, 31 Dec 1899 14:35:00 GMT","Spot_Number":32,"Spot_Location":"4540 W. Maypole ave. Chicago IL","Latitude":41.88455,"Longitude":-87.7397,"Spot_Name_":"Kenton & Maypole","Gang":"UVLs","Faction":"Washington & Kilbourn","Prominent_Corner_Spot":0,"Major_Street_Spot_in_front_of_d":0,"Residential_Block_Spot":1,"FID":32}},{"type":"Feature","id":33,"geometry":{"type":"Point","coordinates":[-87.74429,41.8759]},"properties":{"Date":"Wed, 22 Jun 2022 00:00:00 GMT","Time":"Sun, 31 Dec 1899 14:39:00 GMT","Spot_Number":33,"Spot_Location":"4739 W. Gladys ave. Chicago IL","Latitude":41.8759,"Longitude":-87.74429,"Spot_Name_":"Gladys & Cicero","Gang":"Under Taker Vicelords","Faction":"Under Taker Vicelords","Prominent_Corner_Spot":0,"Major_Street_Spot_in_front_of_d":0,"Residential_Block_Spot":1,"FID":33}},{"type":"Feature","id":34,"geometry":{"type":"Point","coordinates":[-87.7112,41.88475]},"properties":{"Date":"Wed, 22 Jun 2022 00:00:00 GMT","Time":"Sun, 31 Dec 1899 13:45:00 GMT","Spot_Number":34,"Spot_Location":"3400 W. Lake st. Chicago IL","Latitude":41.88475,"Longitude":-87.7112,"Spot_Name_":"Lake & Homan","Gang":"Black Souls","Faction":"Homan & Walnut","Prominent_Corner_Spot":1,"Major_Street_Spot_in_front_of_d":0,"Residential_Block_Spot":0,"FID":34}},{"type":"Feature","id":35,"geometry":{"type":"Point","coordinates":[-87.72214,41.87619]},"properties":{"Date":"Wed, 22 Jun 2022 00:00:00 GMT","Time":"Sun, 31 Dec 1899 14:01:00 GMT","Spot_Number":35,"Spot_Location":"3837 W. Gladys ave. Chicago IL","Latitude":41.87619,"Longitude":-87.72214,"Spot_Name_":"Gladys & Hamlin","Gang":"4CH","Faction":"Fat Shorty Gang (FSG)","Prominent_Corner_Spot":0,"Major_Street_Spot_in_front_of_d":0,"Residential_Block_Spot":1,"FID":35}},{"type":"Feature","id":36,"geometry":{"type":"Point","coordinates":[-87.70897,41.89504]},"properties":{"Date":"Wed, 22 Jun 2022 00:00:00 GMT","Time":"Sun, 31 Dec 1899 12:45:00 GMT","Spot_Number":36,"Spot_Location":"761 N. Spaulding ave. Chicago IL","Latitude":41.89504,"Longitude":-87.70897,"Spot_Name_":"Chicago & Spaulding","Gang":"TVLs","Faction":"Chicago ave.","Prominent_Corner_Spot":1,"Major_Street_Spot_in_front_of_d":0,"Residential_Block_Spot":0,"FID":36}},{"type":"Feature","id":37,"geometry":{"type":"Point","coordinates":[-87.72386,41.90166]},"properties":{"Date":"Wed, 22 Jun 2022 00:00:00 GMT","Time":"Sun, 31 Dec 1899 11:30:00 GMT","Spot_Number":37,"Spot_Location":"1124 N. Springfield ave. Chicago IL","Latitude":41.90166,"Longitude":-87.72386,"Spot_Name_":"Thomas & Springfield","Gang":"GDs","Faction":"Ridgeway & Thomas","Prominent_Corner_Spot":0,"Major_Street_Spot_in_front_of_d":0,"Residential_Block_Spot":1,"FID":37}},{"type":"Feature","id":38,"geometry":{"type":"Point","coordinates":[-87.71888,41.89911]},"properties":{"Date":"Wed, 22 Jun 2022 00:00:00 GMT","Time":"Sun, 31 Dec 1899 11:35:00 GMT","Spot_Number":38,"Spot_Location":"1000 N. Lawndale ave. Chicago IL","Latitude":41.89911,"Longitude":-87.71888,"Spot_Name_":"Augusta & Lawndale","Gang":"UVLs","Faction":"Thomas & Monticello ","Prominent_Corner_Spot":1,"Major_Street_Spot_in_front_of_d":0,"Residential_Block_Spot":0,"FID":38}},{"type":"Feature","id":39,"geometry":{"type":"Point","coordinates":[-87.71649,41.89907]},"properties":{"Date":"Wed, 22 Jun 2022 00:00:00 GMT","Time":"Sun, 31 Dec 1899 11:43:00 GMT","Spot_Number":39,"Spot_Location":"3601 W Augusta Blvd Chicago IL","Latitude":41.89907,"Longitude":-87.71649,"Spot_Name_":"Augusta & Central Park","Gang":"TVLs","Faction":"Chicago ave.","Prominent_Corner_Spot":1,"Major_Street_Spot_in_front_of_d":0,"Residential_Block_Spot":0,"FID":39}},{"type":"Feature","id":40,"geometry":{"type":"Point","coordinates":[-87.7096889,41.8579816]},"properties":{"Date":"Thu, 30 Jun 2022 00:00:00 GMT","Time":"Sun, 31 Dec 1899 11:33:00 GMT","Spot_Number":40,"Spot_Location":"1633 S. Homan ave. Chicago IL","Latitude":41.8579816,"Longitude":-87.7096889,"Spot_Name_":"16th & Homan a","Gang":"Black Souls","Faction":"16th & Homan","Prominent_Corner_Spot":0,"Major_Street_Spot_in_front_of_d":1,"Residential_Block_Spot":0,"FID":40}},{"type":"Feature","id":41,"geometry":{"type":"Point","coordinates":[-87.7067188,41.8594209]},"properties":{"Date":"Thu, 30 Jun 2022 00:00:00 GMT","Time":"Sun, 31 Dec 1899 11:42:00 GMT","Spot_Number":41,"Spot_Location":"1550 S. Sawyer ave. Chicago IL ","Latitude":41.8594209,"Longitude":-87.7067188,"Spot_Name_":"16th & Sawyer","Gang":"New Breeds","Faction":"16th & Kedzie","Prominent_Corner_Spot":0,"Major_Street_Spot_in_front_of_d":0,"Residential_Block_Spot":1,"FID":41}},{"type":"Feature","id":42,"geometry":{"type":"Point","coordinates":[-87.7213333,41.8662854]},"properties":{"Date":"Thu, 30 Jun 2022 00:00:00 GMT","Time":"Sun, 31 Dec 1899 12:06:00 GMT","Spot_Number":42,"Spot_Location":"3821 W Roosevelt Rd. Chicago IL ","Latitude":41.8662854,"Longitude":-87.7213333,"Spot_Name_":"Roosevelt & Avers","Gang":"CVLs","Faction":"13th & Independence ","Prominent_Corner_Spot":1,"Major_Street_Spot_in_front_of_d":0,"Residential_Block_Spot":0,"FID":42}},{"type":"Feature","id":43,"geometry":{"type":"Point","coordinates":[-87.7096216,41.8590839]},"properties":{"Date":"Thu, 30 Jun 2022 00:00:00 GMT","Time":"Sun, 31 Dec 1899 11:44:00 GMT","Spot_Number":43,"Spot_Location":"3348 W. 16th st. Chicago IL","Latitude":41.8590839,"Longitude":-87.7096216,"Spot_Name_":"16th & Homan b","Gang":"Black Souls","Faction":"16th & Homan","Prominent_Corner_Spot":1,"Major_Street_Spot_in_front_of_d":0,"Residential_Block_Spot":0,"FID":43}},{"type":"Feature","id":44,"geometry":{"type":"Point","coordinates":[-87.7226053,41.8627923]},"properties":{"Date":"Thu, 30 Jun 2022 00:00:00 GMT","Time":"Sun, 31 Dec 1899 12:11:00 GMT","Spot_Number":44,"Spot_Location":"1355 S. Springfield Chicago IL","Latitude":41.8627923,"Longitude":-87.7226053,"Spot_Name_":"14th & Springfield ","Gang":"CVLs","Faction":"13th & Independence ","Prominent_Corner_Spot":0,"Major_Street_Spot_in_front_of_d":0,"Residential_Block_Spot":1,"FID":44}},{"type":"Feature","id":45,"geometry":{"type":"Point","coordinates":[-87.7177924,41.8655081]},"properties":{"Date":"Thu, 30 Jun 2022 00:00:00 GMT","Time":"Sun, 31 Dec 1899 12:16:00 GMT","Spot_Number":45,"Spot_Location":"1225 S. Lawndale Chicago IL","Latitude":41.8655081,"Longitude":-87.7177924,"Spot_Name_":"Roosevelt & Lawndale","Gang":"New Breeds","Faction":"Beam Team/JCG","Prominent_Corner_Spot":0,"Major_Street_Spot_in_front_of_d":0,"Residential_Block_Spot":1,"FID":45}},{"type":"Feature","id":46,"geometry":{"type":"Point","coordinates":[-87.7249588,41.8571378]},"properties":{"Date":"Thu, 30 Jun 2022 00:00:00 GMT","Time":"Sun, 31 Dec 1899 12:37:00 GMT","Spot_Number":46,"Spot_Location":"4002 W. 18th st. Chicago IL","Latitude":41.8571378,"Longitude":-87.7249588,"Spot_Name_":"18th & Pulaski","Gang":"CVLs","Faction":"Holy City-Motherland","Prominent_Corner_Spot":1,"Major_Street_Spot_in_front_of_d":0,"Residential_Block_Spot":0,"FID":46}},{"type":"Feature","id":47,"geometry":{"type":"Point","coordinates":[-87.721936,41.8726135]},"properties":{"Date":"Thu, 30 Jun 2022 00:00:00 GMT","Time":"Sun, 31 Dec 1899 12:51:00 GMT","Spot_Number":47,"Spot_Location":"3839 W Flournoy st. Chicago IL","Latitude":41.8726135,"Longitude":-87.721936,"Spot_Name_":"Springfield & Flournoy","Gang":"4CH","Faction":"Sydicate Fours","Prominent_Corner_Spot":0,"Major_Street_Spot_in_front_of_d":0,"Residential_Block_Spot":1,"FID":47}}]}