{"type":"FeatureCollection","crs":{"type":"name","properties":{"name":"EPSG:4326"}},"features":[{"type":"Feature","id":1,"geometry":{"type":"Point","coordinates":[-87.71144,41.89551]},"properties":{"Spot_Location":"800 N. Homan ave. Chicago IL","Latitude":41.89551,"Longitude":-87.71144,"Spot_Name_":"Chicago & Homan","shootings":10,"FID":1}},{"type":"Feature","id":2,"geometry":{"type":"Point","coordinates":[-87.71507,41.89554]},"properties":{"Spot_Location":"800 N. Drake ave. Chicago IL","Latitude":41.89554,"Longitude":-87.71507,"Spot_Name_":"Chicago & Drake","shootings":18,"FID":2}},{"type":"Feature","id":3,"geometry":{"type":"Point","coordinates":[-87.71614,41.89604]},"properties":{"Spot_Location":"815 N. Central Park ave. Chicago IL","Latitude":41.89604,"Longitude":-87.71614,"Spot_Name_":"Chicago & Central Park ","shootings":22,"FID":3}},{"type":"Feature","id":4,"geometry":{"type":"Point","coordinates":[-87.71263,41.89548]},"properties":{"Spot_Location":"800 N. Trumbull ave. Chicago IL ","Latitude":41.89548,"Longitude":-87.71263,"Spot_Name_":"Chicago & Trumbull","shootings":5,"FID":4}},{"type":"Feature","id":5,"geometry":{"type":"Point","coordinates":[-87.71374,41.89553]},"properties":{"Spot_Location":"3452 W. Chicago ave. Chicago IL","Latitude":41.89553,"Longitude":-87.71374,"Spot_Name_":"Chicago & Springfield ","shootings":6,"FID":5}},{"type":"Feature","id":6,"geometry":{"type":"Point","coordinates":[-87.71009,41.89207]},"properties":{"Spot_Location":"3330 W. Ohio st. Chicago IL ","Latitude":41.89207,"Longitude":-87.71009,"Spot_Name_":"Ohio & Christiana ","shootings":10,"FID":6}},{"type":"Feature","id":7,"geometry":{"type":"Point","coordinates":[-87.7065,41.89196]},"properties":{"Spot_Location":"600 N. Kedzie ave. Chicago IL ","Latitude":41.89196,"Longitude":-87.7065,"Spot_Name_":"Kedzie & Ohio","shootings":11,"FID":7}},{"type":"Feature","id":8,"geometry":{"type":"Point","coordinates":[-87.71981,41.88991]},"properties":{"Spot_Location":"501 North Ridgeway Ave. Chicago IL","Latitude":41.88991,"Longitude":-87.71981,"Spot_Name_":"Ferdinand & Ridgeway","shootings":18,"FID":8}},{"type":"Feature","id":9,"geometry":{"type":"Point","coordinates":[-87.72241,41.88972]},"properties":{"Spot_Location":"3835 West Ferdinand st. Chicago IL","Latitude":41.88972,"Longitude":-87.72241,"Spot_Name_":"Ferdinand & Avers","shootings":29,"FID":9}},{"type":"Feature","id":10,"geometry":{"type":"Point","coordinates":[-87.72504,41.90086]},"properties":{"Spot_Location":"1101 N Harding ave. Chicago IL","Latitude":41.90086,"Longitude":-87.72504,"Spot_Name_":"Thomas & Harding ","shootings":9,"FID":10}},{"type":"Feature","id":11,"geometry":{"type":"Point","coordinates":[-87.71966,41.90277]},"properties":{"Spot_Location":"3700 W. Division st. Chicago IL","Latitude":41.90277,"Longitude":-87.71966,"Spot_Name_":"Lawndale & Division","shootings":13,"FID":11}},{"type":"Feature","id":12,"geometry":{"type":"Point","coordinates":[-87.73358,41.87971]},"properties":{"Spot_Location":"4310 W. Monroe st. Chicago IL","Latitude":41.87971,"Longitude":-87.73358,"Spot_Name_":"Monroe & Kildare","shootings":16,"FID":12}},{"type":"Feature","id":13,"geometry":{"type":"Point","coordinates":[-87.72712,41.88066]},"properties":{"Spot_Location":"4037 W. Madison st. Chicago IL","Latitude":41.88066,"Longitude":-87.72712,"Spot_Name_":"Pulaski & Madison A","shootings":20,"FID":13}},{"type":"Feature","id":14,"geometry":{"type":"Point","coordinates":[-87.72616,41.88068]},"properties":{"Spot_Location":"4010 W. Madison st. Chicago IL","Latitude":41.88068,"Longitude":-87.72616,"Spot_Name_":"Pulaski & Madison B","shootings":22,"FID":14}},{"type":"Feature","id":15,"geometry":{"type":"Point","coordinates":[-87.72557,41.88069]},"properties":{"Spot_Location":"3981 W. Madison St. Chicago","Latitude":41.88069,"Longitude":-87.72557,"Spot_Name_":"Pulaski & Madison C","shootings":51,"FID":15}},{"type":"Feature","id":16,"geometry":{"type":"Point","coordinates":[-87.72396,41.8807]},"properties":{"Spot_Location":"3911 W. Madison St. Chicago IL","Latitude":41.8807,"Longitude":-87.72396,"Spot_Name_":"Springfield & Madison","shootings":55,"FID":16}},{"type":"Feature","id":17,"geometry":{"type":"Point","coordinates":[-87.72713,41.87891]},"properties":{"Spot_Location":"4038 W. Wilcox St. Chicago IL","Latitude":41.87891,"Longitude":-87.72713,"Spot_Name_":"Pulaski & Wilcox","shootings":62,"FID":17}},{"type":"Feature","id":18,"geometry":{"type":"Point","coordinates":[-87.72392,41.87707]},"properties":{"Spot_Location":"3919 W. Jackson St. Chicago IL","Latitude":41.87707,"Longitude":-87.72392,"Spot_Name_":"Pulaski & Jackson","shootings":64,"FID":18}},{"type":"Feature","id":19,"geometry":{"type":"Point","coordinates":[-87.72568,41.87443]},"properties":{"Spot_Location":"4000 W. Congress Pkwy. Chicago IL","Latitude":41.87443,"Longitude":-87.72568,"Spot_Name_":"Pulaski & Congress","shootings":63,"FID":19}},{"type":"Feature","id":20,"geometry":{"type":"Point","coordinates":[-87.72225,41.87894]},"properties":{"Spot_Location":"3818 W. Wilcox st. Chicago IL","Latitude":41.87894,"Longitude":-87.72225,"Spot_Name_":"Springfield & Wilcox","shootings":54,"FID":20}},{"type":"Feature","id":21,"geometry":{"type":"Point","coordinates":[-87.72237,41.87805]},"properties":{"Spot_Location":"3947 W. Wilcox st. Chicago IL","Latitude":41.87805,"Longitude":-87.72237,"Spot_Name_":"Springfield & Adams","shootings":54,"FID":21}},{"type":"Feature","id":22,"geometry":{"type":"Point","coordinates":[-87.71078,41.87558]},"properties":{"Spot_Location":"357 S. Homan ave Chicago IL","Latitude":41.87558,"Longitude":-87.71078,"Spot_Name_":"Homan & Van Buren","shootings":53,"FID":22}},{"type":"Feature","id":23,"geometry":{"type":"Point","coordinates":[-87.72369,41.89719]},"properties":{"Spot_Location":"898 N. Springfield ave. Chicago IL","Latitude":41.89719,"Longitude":-87.72369,"Spot_Name_":"Springfield & Iowa","shootings":10,"FID":23}},{"type":"Feature","id":24,"geometry":{"type":"Point","coordinates":[-87.71519,41.89916]},"properties":{"Spot_Location":"3532 W. Augusta st. Chicago IL","Latitude":41.89916,"Longitude":-87.71519,"Spot_Name_":"Augusta & Drake","shootings":10,"FID":24}},{"type":"Feature","id":25,"geometry":{"type":"Point","coordinates":[-87.73547,41.87424]},"properties":{"Spot_Location":"4410 W. Congress Pkwy. Chicago IL","Latitude":41.87424,"Longitude":-87.73547,"Spot_Name_":"Kostner & Harrison ","shootings":11,"FID":25}},{"type":"Feature","id":26,"geometry":{"type":"Point","coordinates":[-87.73163,41.87523]},"properties":{"Spot_Location":"4230 W. Van Buren St. Chicago IL","Latitude":41.87523,"Longitude":-87.73163,"Spot_Name_":"Kildare & Van Buren","shootings":12,"FID":26}},{"type":"Feature","id":27,"geometry":{"type":"Point","coordinates":[-87.73291,41.87611]},"properties":{"Spot_Location":"4300 W. Gladys ave. Chicago IL","Latitude":41.87611,"Longitude":-87.73291,"Spot_Name_":"Kildare & Gladys","shootings":14,"FID":27}},{"type":"Feature","id":28,"geometry":{"type":"Point","coordinates":[-87.72924,41.87795]},"properties":{"Spot_Location":"4130 W. Adams st. Chicago IL","Latitude":41.87795,"Longitude":-87.72924,"Spot_Name_":"Adams & Keeler","shootings":18,"FID":28}},{"type":"Feature","id":29,"geometry":{"type":"Point","coordinates":[-87.72481,41.87532]},"properties":{"Spot_Location":"3944 W. Van Buren st. Chicago IL","Latitude":41.87532,"Longitude":-87.72481,"Spot_Name_":"Pulaski & Van Buren","shootings":19,"FID":29}},{"type":"Feature","id":30,"geometry":{"type":"Point","coordinates":[-87.73515,41.88461]},"properties":{"Spot_Location":"4350 W. Maypole ave. Chicago IL","Latitude":41.88461,"Longitude":-87.73515,"Spot_Name_":"Kostner & Maypole","shootings":9,"FID":30}},{"type":"Feature","id":31,"geometry":{"type":"Point","coordinates":[-87.7397,41.88455]},"properties":{"Spot_Location":"4540 W. Maypole ave. Chicago IL","Latitude":41.88455,"Longitude":-87.7397,"Spot_Name_":"Kenton & Maypole","shootings":2,"FID":31}},{"type":"Feature","id":32,"geometry":{"type":"Point","coordinates":[-87.74429,41.8759]},"properties":{"Spot_Location":"4739 W. Gladys ave. Chicago IL","Latitude":41.8759,"Longitude":-87.74429,"Spot_Name_":"Gladys & Cicero","shootings":3,"FID":32}},{"type":"Feature","id":33,"geometry":{"type":"Point","coordinates":[-87.7112,41.88475]},"properties":{"Spot_Location":"3400 W. Lake st. Chicago IL","Latitude":41.88475,"Longitude":-87.7112,"Spot_Name_":"Lake & Homan","shootings":1,"FID":33}},{"type":"Feature","id":34,"geometry":{"type":"Point","coordinates":[-87.72214,41.87619]},"properties":{"Spot_Location":"3837 W. Gladys ave. Chicago IL","Latitude":41.87619,"Longitude":-87.72214,"Spot_Name_":"Gladys & Hamlin","shootings":5,"FID":34}},{"type":"Feature","id":35,"geometry":{"type":"Point","coordinates":[-87.70897,41.89504]},"properties":{"Spot_Location":"761 N. Spaulding ave. Chicago IL","Latitude":41.89504,"Longitude":-87.70897,"Spot_Name_":"Chicago & Spaulding","shootings":5,"FID":35}},{"type":"Feature","id":36,"geometry":{"type":"Point","coordinates":[-87.72386,41.90166]},"properties":{"Spot_Location":"1124 N. Springfield ave. Chicago IL","Latitude":41.90166,"Longitude":-87.72386,"Spot_Name_":"Thomas & Springfield","shootings":10,"FID":36}},{"type":"Feature","id":37,"geometry":{"type":"Point","coordinates":[-87.71888,41.89911]},"properties":{"Spot_Location":"1000 N. Lawndale ave. Chicago IL","Latitude":41.89911,"Longitude":-87.71888,"Spot_Name_":"Augusta & Lawndale","shootings":15,"FID":37}},{"type":"Feature","id":38,"geometry":{"type":"Point","coordinates":[-87.71649,41.89907]},"properties":{"Spot_Location":"3601 W Augusta Blvd Chicago IL","Latitude":41.89907,"Longitude":-87.71649,"Spot_Name_":"Augusta & Central Park","shootings":13,"FID":38}},{"type":"Feature","id":39,"geometry":{"type":"Point","coordinates":[-87.7096889,41.8579816]},"properties":{"Spot_Location":"1633 S. Homan ave. Chicago IL","Latitude":41.8579816,"Longitude":-87.7096889,"Spot_Name_":"16th & Homan A","shootings":8,"FID":39}},{"type":"Feature","id":40,"geometry":{"type":"Point","coordinates":[-87.7067188,41.8594209]},"properties":{"Spot_Location":"1550 S. Sawyer ave. Chicago IL ","Latitude":41.8594209,"Longitude":-87.7067188,"Spot_Name_":"16th & Sawyer","shootings":9,"FID":40}},{"type":"Feature","id":41,"geometry":{"type":"Point","coordinates":[-87.7213333,41.8662854]},"properties":{"Spot_Location":"3821 W Roosevelt Rd. Chicago IL ","Latitude":41.8662854,"Longitude":-87.7213333,"Spot_Name_":"Roosevelt & Avers","shootings":2,"FID":41}},{"type":"Feature","id":42,"geometry":{"type":"Point","coordinates":[-87.7096216,41.8590839]},"properties":{"Spot_Location":"3348 W. 16th st. Chicago IL","Latitude":41.8590839,"Longitude":-87.7096216,"Spot_Name_":"16th & Homan B","shootings":3,"FID":42}},{"type":"Feature","id":43,"geometry":{"type":"Point","coordinates":[-87.7226053,41.8627923]},"properties":{"Spot_Location":"1355 S. Springfield Chicago IL","Latitude":41.8627923,"Longitude":-87.7226053,"Spot_Name_":"14th & Springfield ","shootings":1,"FID":43}},{"type":"Feature","id":44,"geometry":{"type":"Point","coordinates":[-87.7177924,41.8655081]},"properties":{"Spot_Location":"1225 S. Lawndale Chicago IL","Latitude":41.8655081,"Longitude":-87.7177924,"Spot_Name_":"Roosevelt & Lawndale","shootings":5,"FID":44}},{"type":"Feature","id":45,"geometry":{"type":"Point","coordinates":[-87.7249588,41.8571378]},"properties":{"Spot_Location":"4002 W. 18th st. Chicago IL","Latitude":41.8571378,"Longitude":-87.7249588,"Spot_Name_":"18th & Pulaski","shootings":5,"FID":45}},{"type":"Feature","id":46,"geometry":{"type":"Point","coordinates":[-87.721936,41.8726135]},"properties":{"Spot_Location":"3839 W Flournoy st. Chicago IL","Latitude":41.8726135,"Longitude":-87.721936,"Spot_Name_":"Springfield & Flournoy","shootings":10,"FID":46}},{"type":"Feature","id":47,"geometry":{"type":"Point","coordinates":[-87.72502,41.869882]},"properties":{"Spot_Location":"3958 W. Arthington st. Chicago IL","Latitude":41.869882,"Longitude":-87.72502,"Spot_Name_":"Pulaski & Arthington","shootings":9,"FID":47}},{"type":"Feature","id":48,"geometry":{"type":"Point","coordinates":[-87.72423,41.87622]},"properties":{"Spot_Location":"3929 W. Gladys St. Chicago IL","Latitude":41.87622,"Longitude":-87.72423,"Spot_Name_":"Pulaski & Gladys","shootings":2,"FID":48}},{"type":"Feature","id":49,"geometry":{"type":"Point","coordinates":[-87.722983,41.873516]},"properties":{"Spot_Location":"3867 W. Harrison ave, Chicago IL","Latitude":41.873516,"Longitude":-87.722983,"Spot_Name_":"Springfield & Harrison","shootings":3,"FID":49}},{"type":"Feature","id":50,"geometry":{"type":"Point","coordinates":[-87.722897,41.871633]},"properties":{"Spot_Location":"3900 W. Lexington ave, Chicago IL","Latitude":41.871633,"Longitude":-87.722897,"Spot_Name_":"Springfield & Lexington","shootings":1,"FID":50}},{"type":"Feature","id":51,"geometry":{"type":"Point","coordinates":[-87.731752,41.878861]},"properties":{"Spot_Location":"4230 W. Wilcox st. Chicago IL","Latitude":41.878861,"Longitude":-87.731752,"Spot_Name_":"Wilcox & Kildare","shootings":5,"FID":51}},{"type":"Feature","id":52,"geometry":{"type":"Point","coordinates":[-87.732975,41.877844]},"properties":{"Spot_Location":"4300 W. Adams st. Chicago IL","Latitude":41.877844,"Longitude":-87.732975,"Spot_Name_":"Adams & Kildare ","shootings":5,"FID":52}},{"type":"Feature","id":53,"geometry":{"type":"Point","coordinates":[-87.746345,41.87857]},"properties":{"Spot_Location":"4829 W. Adams st. Chicago IL","Latitude":41.87857,"Longitude":-87.746345,"Spot_Name_":"Cicero & Adams","shootings":10,"FID":53}},{"type":"Feature","id":54,"geometry":{"type":"Point","coordinates":[-87.751337,41.875817]},"properties":{"Spot_Location":"5048 W. Gladys st. Chicago IL","Latitude":41.875817,"Longitude":-87.751337,"Spot_Name_":"Gladys & Leamington","shootings":15,"FID":54}},{"type":"Feature","id":55,"geometry":{"type":"Point","coordinates":[-87.753038,41.880246]},"properties":{"Spot_Location":"5103 W. Madison st. Chicago IL","Latitude":41.880246,"Longitude":-87.753038,"Spot_Name_":"Leamington & Madison","shootings":13,"FID":55}},{"type":"Feature","id":56,"geometry":{"type":"Point","coordinates":[-87.752936,41.880368]},"properties":{"Spot_Location":"5101 W. Madison st. Chicago IL","Latitude":41.880368,"Longitude":-87.752936,"Spot_Name_":"Leamington & Madison A","shootings":8,"FID":56}},{"type":"Feature","id":57,"geometry":{"type":"Point","coordinates":[-87.7526,41.880434]},"properties":{"Spot_Location":"3 N. Leclaire ave. Chicago IL","Latitude":41.880434,"Longitude":-87.7526,"Spot_Name_":"Leamington & Madison B","shootings":5,"FID":57}},{"type":"Feature","id":58,"geometry":{"type":"Point","coordinates":[-87.75396,41.884612]},"properties":{"Spot_Location":"203 N. Leamington ave. Chicago IL","Latitude":41.884612,"Longitude":-87.75396,"Spot_Name_":"Leamington & Maypole","shootings":10,"FID":58}},{"type":"Feature","id":59,"geometry":{"type":"Point","coordinates":[-87.771841,41.882185]},"properties":{"Spot_Location":"5900 W Washington Blvd Chicago IL","Latitude":41.882185,"Longitude":-87.771841,"Spot_Name_":"Mayfield & Washington","shootings":9,"FID":59}},{"type":"Feature","id":60,"geometry":{"type":"Point","coordinates":[-87.755052,41.895027]},"properties":{"Spot_Location":"800 N. Laramie ave. Chicago IL","Latitude":41.895027,"Longitude":-87.755052,"Spot_Name_":"Laramie & Chicago","shootings":2,"FID":60}},{"type":"Feature","id":61,"geometry":{"type":"Point","coordinates":[-87.711374,41.880944]},"properties":{"Spot_Location":"3430 W. Madison st. Chicago IL","Latitude":41.880944,"Longitude":-87.711374,"Spot_Name_":"Madison & Homan","shootings":3,"FID":61}},{"type":"Feature","id":62,"geometry":{"type":"Point","coordinates":[-87.7017847,41.8805189]},"properties":{"Spot_Location":"11 S. Whipple st. Chicago IL","Latitude":41.8805189,"Longitude":-87.7017847,"Spot_Name_":"Madison & Whipple","shootings":1,"FID":62}},{"type":"Feature","id":63,"geometry":{"type":"Point","coordinates":[-87.703639,41.881037]},"properties":{"Spot_Location":"3054 W. Madison st. Chicago IL ","Latitude":41.881037,"Longitude":-87.703639,"Spot_Name_":"Madison & Albany","shootings":5,"FID":63}},{"type":"Feature","id":64,"geometry":{"type":"Point","coordinates":[-87.699932,41.873804]},"properties":{"Spot_Location":"2930 W. Harrison st. Chicago IL","Latitude":41.873804,"Longitude":-87.699932,"Spot_Name_":"Harrison & Sacramento","shootings":5,"FID":64}},{"type":"Feature","id":65,"geometry":{"type":"Point","coordinates":[-87.703745,41.872818]},"properties":{"Spot_Location":"3102 W. Flournoy st. Chicago IL","Latitude":41.872818,"Longitude":-87.703745,"Spot_Name_":"Albany & Flournoy ","shootings":10,"FID":65}},{"type":"Feature","id":66,"geometry":{"type":"Point","coordinates":[-87.702045,41.87188]},"properties":{"Spot_Location":"3027 W. Lexington st. Chicago IL","Latitude":41.87188,"Longitude":-87.702045,"Spot_Name_":"Lexington & Sacramento","shootings":15,"FID":66}},{"type":"Feature","id":67,"geometry":{"type":"Point","coordinates":[-87.713358,41.872707]},"properties":{"Spot_Location":"3502 W. Flournoy st. Chicago IL","Latitude":41.872707,"Longitude":-87.713358,"Spot_Name_":"St. Louis & Flournoy","shootings":13,"FID":67}},{"type":"Feature","id":68,"geometry":{"type":"Point","coordinates":[-87.722891,41.875336]},"properties":{"Spot_Location":"3900 W. Van Burem st. Chicago IL","Latitude":41.875336,"Longitude":-87.722891,"Spot_Name_":"Springfield & Van Buren","shootings":8,"FID":68}},{"type":"Feature","id":69,"geometry":{"type":"Point","coordinates":[-87.753789,41.885647]},"properties":{"Spot_Location":"5123 W. Fulton st. Chicago IL","Latitude":41.885647,"Longitude":-87.753789,"Spot_Name_":"Fulton & Leamington ","shootings":1,"FID":69}},{"type":"Feature","id":70,"geometry":{"type":"Point","coordinates":[-87.753789,41.885647]},"properties":{"Spot_Location":"5123 W. Fulton st. Chicago IL","Latitude":41.885647,"Longitude":-87.753789,"Spot_Name_":"Fulton & Leamington ","shootings":null,"FID":70}}]}